{"type":"FeatureCollection","licence":"Data © OpenStreetMap contributors, ODbL 1.0. https://osm.org/copyright","features":[{"type":"Feature","properties":{"fid":2,"place_id":17395761,"osm_type":"node","osm_id":1659824847,"display_name":"BANCOR, 509, Córdoba, Bell Ville, Municipio de Bell Ville, Pedanía Bell Ville, Departamento Unión, Cba., 2550, Argentina","place_rank":30,"category":"amenity","type":"bank","importance":0.5209999999999999,"icon":"https://nominatim.openstreetmap.org/images/mapicons/money_bank2.p.20.png"},"bbox":[-62.6929851,-32.6300548,-62.6928851,-32.6299548],"geometry":{"type":"Point","coordinates":[-62.6929351,-32.6300048]}},
{"type":"Feature","properties":{"fid":3,"place_id":117711565,"osm_type":"way","osm_id":180849820,"display_name":"San Martín, Casa Grande, Comuna de Casa Grande, Pedanía San Antonio, Departamento Punilla, Cba., X5166, Argentina","place_rank":26,"category":"highway","type":"residential","importance":0.41000000000000003},"bbox":[-64.4917849,-31.1554627,-64.4757933,-31.1544803],"geometry":{"type":"Point","coordinates":[-64.4841188,-31.1553434]}},
{"type":"Feature","properties":{"fid":4,"place_id":244920272,"osm_type":"way","osm_id":219018324,"display_name":"Marcelo T. de Alvear, Cruz del Eje, Municipio de Cruz del Eje, Pedanía Cruz del Eje, Departamento Cruz del Eje, Cba., X5280, Argentina","place_rank":26,"category":"highway","type":"tertiary","importance":0.61},"bbox":[-64.8091412,-30.7259031,-64.8030509,-30.7160372],"geometry":{"type":"Point","coordinates":[-64.8059672,-30.7210095]}},
{"type":"Feature","properties":{"fid":5,"place_id":196451222,"osm_type":"way","osm_id":610931388,"display_name":"Rivadavia, Deán Funes, Municipio de Deán Funes, Pedanía Toyos, Departamento Ischilín, Cba., 5200, Argentina","place_rank":26,"category":"highway","type":"secondary","importance":0.51},"bbox":[-64.3524202,-30.4263969,-64.3495619,-30.4247033],"geometry":{"type":"Point","coordinates":[-64.3505311,-30.4252798]}},
{"type":"Feature","properties":{"fid":6,"place_id":245019158,"osm_type":"way","osm_id":645034783,"display_name":"Córdoba, Centro, Jesus María, Municipio de Jesús María, Pedanía Cañas, Departamento Colón, Cba., X5111, Argentina","place_rank":26,"category":"highway","type":"tertiary","importance":0.51},"bbox":[-64.0961063,-30.9813714,-64.0960667,-30.9810891],"geometry":{"type":"Point","coordinates":[-64.0961052,-30.9812554]}},
{"type":"Feature","properties":{"fid":7,"place_id":17238753,"osm_type":"way","osm_id":311565768,"display_name":"194, Avenida Independencia, Barrio Fel, Laboulaye, Municipio de Laboulaye, Pedanía La Amarga, Departamento Presidente Roque Sáenz Peña, Cba., 6120, Argentina","place_rank":30,"category":"place","type":"house","importance":0.5209999999999999},"bbox":[-63.38938165,-34.1269916,-63.38928165,-34.1268916],"geometry":{"type":"Point","coordinates":[-63.38933165,-34.1269416]}},
{"type":"Feature","properties":{"fid":8,"place_id":104941417,"osm_type":"way","osm_id":125110719,"display_name":"Francisco Beiró, Marcos Juárez, Municipio de Marcos Juárez, Pedanía Espinillos, Departamento Marcos Juárez, Cba., X2580, Argentina","place_rank":26,"category":"highway","type":"residential","importance":0.51},"bbox":[-62.1072565,-32.6978341,-62.1046009,-32.6869945],"geometry":{"type":"Point","coordinates":[-62.1059489,-32.692471]}},
{"type":"Feature","properties":{"fid":9,"place_id":16794435,"osm_type":"way","osm_id":302796941,"display_name":"55, Colón, Microcentro, Río Cuarto, Municipio de Río Cuarto, Pedanía Río Cuarto, Departamento Río Cuarto, Cba., X5800, Argentina","place_rank":30,"category":"place","type":"house","importance":0.5209999999999999},"bbox":[-64.349534573735,-33.125238306658,-64.349434573735,-33.125138306658],"geometry":{"type":"Point","coordinates":[-64.3494845737346,-33.1251883066577]}},
{"type":"Feature","properties":{"fid":10,"place_id":119427180,"osm_type":"way","osm_id":186527173,"display_name":"San Martin, Río Tercero, Municipio de Río Tercero, Pedanía Salto, Departamento Tercero Arriba, Cba., X5850, Argentina","place_rank":26,"category":"highway","type":"residential","importance":0.51},"bbox":[-64.135418,-32.1699808,-64.1353326,-32.1628848],"geometry":{"type":"Point","coordinates":[-64.1353797,-32.1666108]}},
{"type":"Feature","properties":{"fid":11,"place_id":114016855,"osm_type":"way","osm_id":166340830,"display_name":"9 de julio, Saldán Centro, Córdoba, Municipio de Saldán, Pedanía Calera Norte, Departamento Capital, Cba., X5000, Argentina","place_rank":26,"category":"highway","type":"residential","importance":0.51},"bbox":[-64.3108145,-31.3189431,-64.3061282,-31.3174355],"geometry":{"type":"Point","coordinates":[-64.3081396,-31.3185193]}},
{"type":"Feature","properties":{"fid":13,"place_id":275802908,"osm_type":"way","osm_id":724729020,"display_name":"Avenida Uruguay, Cu-Cú, Carlos Paz, Municipio de Villa Carlos Paz, Pedanía San Roque, Departamento Punilla, Cba., X5166, Argentina","place_rank":26,"category":"highway","type":"trunk","importance":0.61},"bbox":[-64.5027702,-31.4153911,-64.5019139,-31.4153162],"geometry":{"type":"Point","coordinates":[-64.5021902,-31.4153728]}},
{"type":"Feature","properties":{"fid":14,"place_id":244841244,"osm_type":"way","osm_id":503519252,"display_name":"Sarmiento, Villa Dolores, Municipio de Villa Dolores, Pedanía Dolores, Departamento San Javier, Cba., X5870, Argentina","place_rank":26,"category":"highway","type":"tertiary","importance":0.51},"bbox":[-65.1897668,-31.9457884,-65.1893658,-31.9445569],"geometry":{"type":"Point","coordinates":[-65.1895031,-31.9447361]}},
{"type":"Feature","properties":{"fid":17,"place_id":198822167,"osm_type":"relation","osm_id":2873245,"display_name":"Chepes, Departamento Rosario Vera Peñaloza, LR, F5470, Argentina","place_rank":16,"category":"boundary","type":"administrative","importance":0.462471391577706,"icon":"https://nominatim.openstreetmap.org/images/mapicons/poi_boundary_administrative.p.20.png"},"bbox":[-66.6104762,-31.3564422,-66.5739062,-31.3199858],"geometry":{"type":"Point","coordinates":[-66.5919849,-31.3378908]}},
{"type":"Feature","properties":{"fid":18,"place_id":191787411,"osm_type":"way","osm_id":570767407,"display_name":"San Martin, Aimogasta, Departamento Arauco, LR, F5310, Argentina","place_rank":26,"category":"highway","type":"residential","importance":0.51},"bbox":[-66.8126134,-28.554115,-66.8016593,-28.5465104],"geometry":{"type":"Point","coordinates":[-66.8058705,-28.5525873]}},
{"type":"Feature","properties":{"fid":19,"place_id":20962211,"osm_type":"way","osm_id":520891271,"display_name":"235, Julian Amatte, Barrio Castro y Bazan, Chilecito, Departamento Chilecito, LR, 5360, Argentina","place_rank":30,"category":"place","type":"house","importance":0.5209999999999999},"bbox":[-67.492065038776,-29.161644528571,-67.491965038776,-29.161544528571],"geometry":{"type":"Point","coordinates":[-67.4920150387755,-29.1615945285714]}},
{"type":"Feature","properties":{"fid":20,"place_id":246080216,"osm_type":"way","osm_id":649377794,"display_name":"Moreno, Belgrano, Manuel Belgrano, Viedma, Departamento Adolfo Alsina, RN, R8500, Argentina","place_rank":26,"category":"highway","type":"residential","importance":0.41000000000000003},"bbox":[-62.9977597,-40.8077147,-62.9924279,-40.8053357],"geometry":{"type":"Point","coordinates":[-62.995124,-40.8065387]}},
{"type":"Feature","properties":{"fid":21,"place_id":16441135,"osm_type":"way","osm_id":297439762,"display_name":"889, 9 de Julio, Casco Céntrico, General Roca, Departamento General Roca, RN, 8332, Argentina","place_rank":30,"category":"place","type":"house","importance":0.721},"bbox":[-67.57721605102,-39.029296016327,-67.57711605102,-39.029196016327],"geometry":{"type":"Point","coordinates":[-67.5771660510204,-39.0292460163265]}},
{"type":"Feature","properties":{"fid":22,"place_id":17304424,"osm_type":"way","osm_id":313178798,"display_name":"855, Avenida Ángel Gallardo, Centro, San Carlos de Bariloche, Departamento Bariloche, RN, 8400, Argentina","place_rank":30,"category":"place","type":"house","importance":0.721},"bbox":[-71.298313265306,-41.138145979592,-71.298213265306,-41.138045979592],"geometry":{"type":"Point","coordinates":[-71.2982632653061,-41.1380959795918]}},
{"type":"Feature","properties":{"fid":23,"place_id":19455303,"osm_type":"way","osm_id":414517039,"display_name":"85, Víctor Hugo Albizzatti, Alberti, Partido de Alberti, Bs. As., 6634, Argentina","place_rank":30,"category":"place","type":"house","importance":0.5209999999999999},"bbox":[-60.280911325,-35.0334463,-60.280811325,-35.0333463],"geometry":{"type":"Point","coordinates":[-60.280861325,-35.0333963]}},
{"type":"Feature","properties":{"fid":25,"place_id":240277391,"osm_type":"way","osm_id":629121570,"display_name":"657, Somellera, Adrogué, Partido de Almirante Brown, Bs. As., 1846, Argentina","place_rank":30,"category":"place","type":"house","importance":0.32100000000000006},"bbox":[-58.392837671429,-34.798986342857,-58.392737671429,-34.798886342857],"geometry":{"type":"Point","coordinates":[-58.3927876714286,-34.7989363428571]}},
{"type":"Feature","properties":{"fid":26,"place_id":262322699,"osm_type":"way","osm_id":689803563,"display_name":"Mitre, Barrio Cooperacion 2, Cooperación, Avellaneda, Bahía Blanca, Partido de Bahía Blanca, Bs. As., 8.000, Argentina","place_rank":26,"category":"highway","type":"residential","importance":0.51},"bbox":[-62.3025723,-38.6971069,-62.2888403,-38.6864901],"geometry":{"type":"Point","coordinates":[-62.2957788,-38.6918241]}},
{"type":"Feature","properties":{"fid":27,"place_id":21854123,"osm_type":"way","osm_id":586710310,"display_name":"775, 9 de Julio, Cuartel II, Ayacucho, Partido de Ayacucho, Bs. As., 7150, Argentina","place_rank":30,"category":"place","type":"house","importance":0.621},"bbox":[-58.484736781633,-37.154664479592,-58.484636781633,-37.154564479592],"geometry":{"type":"Point","coordinates":[-58.4846867816327,-37.1546144795918]}},
{"type":"Feature","properties":{"fid":28,"place_id":265962688,"osm_type":"way","osm_id":406344688,"display_name":"ARBA, 374, San Martín, Plan Federal 49 viviendas, Centro, Azul, Partido de Azul, Bs. As., 7300, Argentina","place_rank":30,"category":"office","type":"government","importance":0.5209999999999999},"bbox":[-59.8647768,-36.7771418,-59.8642632,-36.77672],"geometry":{"type":"Point","coordinates":[-59.864520583133,-36.77693195]}},
{"type":"Feature","properties":{"fid":29,"place_id":15628469,"osm_type":"way","osm_id":268941202,"display_name":"282, Mitre, Centro Norte, Bahía Blanca, Partido de Bahía Blanca, Bs. As., B8000HQB, Argentina","place_rank":30,"category":"place","type":"house","importance":0.42099999999999993},"bbox":[-62.26669424898,-38.713789489796,-62.26659424898,-38.713689489796],"geometry":{"type":"Point","coordinates":[-62.2666442489796,-38.7137394897959]}},
{"type":"Feature","properties":{"fid":30,"place_id":244174937,"osm_type":"way","osm_id":88211293,"display_name":"Avenida Gonzales Chaves, Balcarce, Partido de Balcarce, Bs. As., B7620, Argentina","place_rank":26,"category":"highway","type":"secondary","importance":0.41000000000000003},"bbox":[-58.2552257,-37.8460907,-58.2450533,-37.8377872],"geometry":{"type":"Point","coordinates":[-58.2499376,-37.8417312]}},
{"type":"Feature","properties":{"fid":32,"place_id":21357765,"osm_type":"way","osm_id":564442463,"display_name":"39, Avenida San Martín, Benito Juárez, Partido de Benito Juárez, Bs. As., 7020, Argentina","place_rank":30,"category":"place","type":"house","importance":0.621},"bbox":[-59.805635479167,-37.674067558333,-59.805535479167,-37.673967558333],"geometry":{"type":"Point","coordinates":[-59.8055854791667,-37.6740175583333]}},
{"type":"Feature","properties":{"fid":33,"place_id":146590551,"osm_type":"way","osm_id":300878717,"display_name":"Calle 8, Villa Porteña, Berisso, Partido de Berisso, Bs. As., 1923, Argentina","place_rank":26,"category":"highway","type":"residential","importance":0.61},"bbox":[-57.888284,-34.8705135,-57.8881236,-34.8703151],"geometry":{"type":"Point","coordinates":[-57.888284,-34.8705135]}},
{"type":"Feature","properties":{"fid":34,"place_id":102247298,"osm_type":"way","osm_id":118999922,"display_name":"Avenida Lavalle, Villa Diamante, Bolívar, Partido de Bolívar, Bs. As., 6550, Argentina","place_rank":26,"category":"highway","type":"secondary","importance":0.51},"bbox":[-61.1223099,-36.235893,-61.1149615,-36.229757],"geometry":{"type":"Point","coordinates":[-61.118664,-36.2328765]}},
{"type":"Feature","properties":{"fid":38,"place_id":17530979,"osm_type":"way","osm_id":321682241,"display_name":"744, Jean Jaurés, Barrio Inglés, Campana, Partido de Campana, Bs. As., 2804, Argentina","place_rank":30,"category":"place","type":"house","importance":0.42099999999999993},"bbox":[-58.958036525,-34.1654032,-58.957936525,-34.1653032],"geometry":{"type":"Point","coordinates":[-58.957986525,-34.1653532]}},
{"type":"Feature","properties":{"fid":42,"place_id":178241495,"osm_type":"way","osm_id":477694530,"display_name":"Avenida Callao, Morón, Partido de Morón, Bs. As., B1708FEU, Argentina","place_rank":26,"category":"highway","type":"secondary","importance":0.71},"bbox":[-58.63447,-34.6911582,-58.634432,-34.6910844],"geometry":{"type":"Point","coordinates":[-58.634432,-34.6910844]}},
{"type":"Feature","properties":{"fid":43,"place_id":246046569,"osm_type":"way","osm_id":649285950,"display_name":"Avenida Maya, Carlos Casares, Partido de Carlos Casares, Bs. As., 6530, Argentina","place_rank":26,"category":"highway","type":"secondary","importance":0.61},"bbox":[-61.3607919,-35.6289229,-61.3589191,-35.6249681],"geometry":{"type":"Point","coordinates":[-61.3598616,-35.6269667]}},
{"type":"Feature","properties":{"fid":44,"place_id":15911013,"osm_type":"way","osm_id":289905145,"display_name":"343, Garré, Norte, Carlos Tejedor, Partido de Carlos Tejedor, Bs. As., B6455ADE, Argentina","place_rank":30,"category":"place","type":"house","importance":0.42099999999999993},"bbox":[-62.419933242857,-35.3909616,-62.419833242857,-35.3908616],"geometry":{"type":"Point","coordinates":[-62.4198832428571,-35.3909116]}},
{"type":"Feature","properties":{"fid":45,"place_id":132695318,"osm_type":"way","osm_id":238136956,"display_name":"Belgrano, Carmen de Areco, Partido de Carmen de Areco, Bs. As., B6725AIF, Argentina","place_rank":26,"category":"highway","type":"residential","importance":0.61},"bbox":[-59.8116458,-34.3799985,-59.8033906,-34.3788169],"geometry":{"type":"Point","coordinates":[-59.8074713,-34.3794224]}},
{"type":"Feature","properties":{"fid":46,"place_id":250231456,"osm_type":"way","osm_id":55205462,"display_name":"Alsina, Centro, Carmen de Patagones, Partido de Patagones, Bs. As., B8504BUF, Argentina","place_rank":26,"category":"highway","type":"residential","importance":0.61},"bbox":[-62.9873465,-40.8016079,-62.9822211,-40.7983348],"geometry":{"type":"Point","coordinates":[-62.9846259,-40.8001959]}},
{"type":"Feature","properties":{"fid":47,"place_id":120704709,"osm_type":"way","osm_id":194106614,"display_name":"Sarmiento, Almacen Rosa, Castelli, Partido de Castelli, Bs. As., 7114, Argentina","place_rank":26,"category":"highway","type":"residential","importance":0.41000000000000003},"bbox":[-57.8065518,-36.0961825,-57.8036872,-36.0912756],"geometry":{"type":"Point","coordinates":[-57.8051526,-36.0936675]}},
{"type":"Feature","properties":{"fid":48,"place_id":17312931,"osm_type":"way","osm_id":313438844,"display_name":"111, Moreno, Chacabuco, Partido de Chacabuco, Bs. As., 6740, Argentina","place_rank":30,"category":"place","type":"house","importance":0.42099999999999993},"bbox":[-60.467837395833,-34.6418386375,-60.467737395833,-34.6417386375],"geometry":{"type":"Point","coordinates":[-60.4677873958333,-34.6417886375]}},
{"type":"Feature","properties":{"fid":49,"place_id":246606876,"osm_type":"way","osm_id":339406381,"display_name":"Belgrano, Chascomús, Partido de Chascomús, Bs. As., B7130, Argentina","place_rank":26,"category":"highway","type":"secondary","importance":0.31000000000000005},"bbox":[-58.0158797,-35.5776645,-58.014415,-35.5692051],"geometry":{"type":"Point","coordinates":[-58.0150792,-35.5737427]}},
{"type":"Feature","properties":{"fid":51,"place_id":189616727,"osm_type":"way","osm_id":556043801,"display_name":"Pueyrredón, Chivilcoy, Partido de Chivilcoy, Bs. As., B6620KSB, Argentina","place_rank":26,"category":"highway","type":"residential","importance":0.41000000000000003},"bbox":[-60.0113409,-34.8873093,-60.0105512,-34.8866154],"geometry":{"type":"Point","coordinates":[-60.0105512,-34.8866154]}},
{"type":"Feature","properties":{"fid":52,"place_id":153984730,"osm_type":"way","osm_id":332962493,"display_name":"Calle 15, City Bell, Partido de La Plata, Bs. As., 1896, Argentina","place_rank":26,"category":"highway","type":"residential","importance":0.61},"bbox":[-58.061856,-34.8691888,-58.0558707,-34.8678038],"geometry":{"type":"Point","coordinates":[-58.0590767,-34.8684389]}},
{"type":"Feature","properties":{"fid":53,"place_id":178651455,"osm_type":"way","osm_id":475645236,"display_name":"20, Las Lilas, Colón, Partido de Colón, Bs. As., B2720CJN, Argentina","place_rank":26,"category":"highway","type":"residential","importance":0.32000000000000006},"bbox":[-61.1040233,-33.8886986,-61.1039802,-33.8886621],"geometry":{"type":"Point","coordinates":[-61.1039802,-33.8886986]}},
{"type":"Feature","properties":{"fid":59,"place_id":102374551,"osm_type":"way","osm_id":117936947,"display_name":"Las Heras, Coronel Suárez, Partido de Coronel Suárez, Bs. As., 7541, Argentina","place_rank":26,"category":"highway","type":"residential","importance":0.51},"bbox":[-61.9184008,-37.4537522,-61.9143865,-37.4532037],"geometry":{"type":"Point","coordinates":[-61.916593,-37.4535052]}},
{"type":"Feature","properties":{"fid":61,"place_id":39015273,"osm_type":"node","osm_id":2946107409,"display_name":"202, Rivadavia, Daireaux, Partido de Daireaux, Bs. As., 6555, Argentina","place_rank":30,"category":"place","type":"house","importance":0.42099999999999993},"bbox":[-61.7459565,-36.6006209,-61.7458565,-36.6005209],"geometry":{"type":"Point","coordinates":[-61.7459065,-36.6005709]}},
{"type":"Feature","properties":{"fid":62,"place_id":16298955,"osm_type":"way","osm_id":296011049,"display_name":"265, Italia, Darregueira, Partido de Puan, Bs. As., 8183, Argentina","place_rank":30,"category":"place","type":"house","importance":0.42099999999999993},"bbox":[-63.162963997959,-37.691333067347,-63.162863997959,-37.691233067347],"geometry":{"type":"Point","coordinates":[-63.1629139979592,-37.6912830673469]}},
{"type":"Feature","properties":{"fid":63,"place_id":257198881,"osm_type":"way","osm_id":296010978,"display_name":"15, Padre Niehaus, Darregueira, Partido de Puan, Bs. As., 8183, Argentina","place_rank":30,"category":"place","type":"house","importance":0.5209999999999999},"bbox":[-63.162153171096,-37.689527016722,-63.162053171096,-37.689427016722],"geometry":{"type":"Point","coordinates":[-63.1621031710957,-37.6894770167216]}},
{"type":"Feature","properties":{"fid":64,"place_id":19507381,"osm_type":"way","osm_id":416632276,"display_name":"700, Patricio Kilmurry, Norberto de la Riestra, Partido de Veinticinco de Mayo, Bs. As., 6663, Argentina","place_rank":30,"category":"place","type":"house","importance":0.821},"bbox":[-59.77427964557,-35.273141010127,-59.77417964557,-35.273041010127],"geometry":{"type":"Point","coordinates":[-59.7742296455696,-35.2730910101266]}},
{"type":"Feature","properties":{"fid":65,"place_id":277534236,"osm_type":"way","osm_id":294018777,"display_name":"167, Aristóbulo del Valle, San Cayetano, Dolores, Partido de Dolores, Bs. As., B7100, Argentina","place_rank":30,"category":"place","type":"house","importance":0.621},"bbox":[-57.67679752449,-36.317549085714,-57.67669752449,-36.317449085714],"geometry":{"type":"Point","coordinates":[-57.6767475244898,-36.3174990857143]}},
{"type":"Feature","properties":{"fid":66,"place_id":22018979,"osm_type":"way","osm_id":610874270,"display_name":"158, Belgrano, Dudignac, Cuartel Dudignac, Partido de Nueve de Julio, Bs. As., B6505AGP, Argentina","place_rank":30,"category":"place","type":"house","importance":0.42099999999999993},"bbox":[-60.7102092,-35.650549642857,-60.7101092,-35.650449642857],"geometry":{"type":"Point","coordinates":[-60.7101592,-35.6504996428571]}},
{"type":"Feature","properties":{"fid":67,"place_id":89620933,"osm_type":"way","osm_id":52739425,"display_name":"La Merced, Barrio Cambaceres, Ensenada, Partido de Ensenada, Bs. As., B1925, Argentina","place_rank":26,"category":"highway","type":"residential","importance":0.51},"bbox":[-57.9124474,-34.8568546,-57.9077223,-34.8530385],"geometry":{"type":"Point","coordinates":[-57.9100985,-34.8549356]}},
{"type":"Feature","properties":{"fid":68,"place_id":16748648,"osm_type":"way","osm_id":302578275,"display_name":"440, Eugenia Tapia de Cruz, Belén de Escobar, Partido de Escobar, Bs. As., 1625, Argentina","place_rank":30,"category":"place","type":"house","importance":0.721},"bbox":[-58.793003777551,-34.345741932653,-58.792903777551,-34.345641932653],"geometry":{"type":"Point","coordinates":[-58.792953777551,-34.3456919326531]}},
{"type":"Feature","properties":{"fid":69,"place_id":140680632,"osm_type":"way","osm_id":281239846,"display_name":"Avenida Belgrano, Villa Angélica, Garín Centro, Garín, Partido de Escobar, Bs. As., B1619AVK, Argentina","place_rank":26,"category":"highway","type":"tertiary","importance":0.51},"bbox":[-58.7337748,-34.422174,-58.7243595,-34.4172213],"geometry":{"type":"Point","coordinates":[-58.7292504,-34.4198509]}},
{"type":"Feature","properties":{"fid":72,"place_id":157174323,"osm_type":"way","osm_id":363140849,"display_name":"Avellaneda, Ezeiza, Partido de Ezeiza, Bs. As., 1804, Argentina","place_rank":26,"category":"highway","type":"residential","importance":0.41000000000000003},"bbox":[-58.5264461,-34.85601,-58.5248485,-34.8546852],"geometry":{"type":"Point","coordinates":[-58.5257433,-34.8552273]}},
{"type":"Feature","properties":{"fid":74,"place_id":22170065,"osm_type":"way","osm_id":614619559,"display_name":"658, 9 de Julio, Barrio La Merced, Ameghino, Partido de Florentino Ameghino, Bs. As., 6064, Argentina","place_rank":30,"category":"place","type":"house","importance":0.621},"bbox":[-62.467293357143,-34.8448021,-62.467193357143,-34.8447021],"geometry":{"type":"Point","coordinates":[-62.4672433571429,-34.8447521]}},
{"type":"Feature","properties":{"fid":76,"place_id":104132079,"osm_type":"way","osm_id":125953228,"display_name":"Avenida Sarmiento, General Alvear, Partido de General Alvear, Bs. As., B7263, Argentina","place_rank":26,"category":"highway","type":"secondary","importance":0.51},"bbox":[-60.0139527,-36.0222246,-60.013849,-36.0212989],"geometry":{"type":"Point","coordinates":[-60.013849,-36.0212989]}},
{"type":"Feature","properties":{"fid":77,"place_id":182437877,"osm_type":"way","osm_id":489248395,"display_name":"Avenida Carlos María de Alvear, General Arenales, Partido de General Arenales, Bs. As., 6005, Argentina","place_rank":26,"category":"highway","type":"residential","importance":0.51},"bbox":[-61.3052665,-34.3026849,-61.3040893,-34.3018016],"geometry":{"type":"Point","coordinates":[-61.3052665,-34.3026849]}},
{"type":"Feature","properties":{"fid":78,"place_id":96721243,"osm_type":"way","osm_id":92335253,"display_name":"Estrada, Villa Molina, General Belgrano, Partido de General Belgrano, Bs. As., B7223, Argentina","place_rank":26,"category":"highway","type":"residential","importance":0.51},"bbox":[-58.4991938,-35.76776,-58.4951552,-35.7648173],"geometry":{"type":"Point","coordinates":[-58.497128,-35.7663266]}},
{"type":"Feature","properties":{"fid":79,"place_id":256272314,"osm_type":"way","osm_id":677625300,"display_name":"General Belgrano, General Guido, Partido de General Guido, Bs. As., 7118, Argentina","place_rank":26,"category":"highway","type":"residential","importance":0.51},"bbox":[-57.7919535,-36.646368,-57.7918472,-36.6456874],"geometry":{"type":"Point","coordinates":[-57.7919535,-36.646368]}},
{"type":"Feature","properties":{"fid":81,"place_id":22505348,"osm_type":"node","osm_id":2235102371,"display_name":"ARBA, 187, San Martín, General Las Heras, Partido de General Las Heras, Bs. As., 1741, Argentina","place_rank":30,"category":"office","type":"government","importance":0.621},"bbox":[-58.9444626,-34.924992,-58.9443626,-34.924892],"geometry":{"type":"Point","coordinates":[-58.9444126,-34.924942]}},
{"type":"Feature","properties":{"fid":82,"place_id":116755206,"osm_type":"way","osm_id":173262275,"display_name":"Manuel Lainez, General Lavalle, Partido de General Lavalle, Bs. As., 7103, Argentina","place_rank":26,"category":"highway","type":"residential","importance":0.61},"bbox":[-56.9521035,-36.416092,-56.9343486,-36.4021091],"geometry":{"type":"Point","coordinates":[-56.942858,-36.4093904]}},
{"type":"Feature","properties":{"fid":85,"place_id":263168129,"osm_type":"way","osm_id":691331913,"display_name":"Ricardo Gowland, Colonia General Pinto, General Pinto, Partido de General Pinto, Bs. As., B6050, Argentina","place_rank":26,"category":"highway","type":"residential","importance":0.51},"bbox":[-61.9080046,-34.7655661,-61.894831,-34.7643448],"geometry":{"type":"Point","coordinates":[-61.9015055,-34.7649462]}},
{"type":"Feature","properties":{"fid":89,"place_id":17332191,"osm_type":"way","osm_id":313565214,"display_name":"453, San Martín, La Catalina, General Villegas, Partido de General Villegas, Bs. As., 6230, Argentina","place_rank":30,"category":"place","type":"house","importance":0.5209999999999999},"bbox":[-63.016066097959,-35.034100702041,-63.015966097959,-35.034000702041],"geometry":{"type":"Point","coordinates":[-63.0160160979592,-35.0340507020408]}},
{"type":"Feature","properties":{"fid":91,"place_id":196277602,"osm_type":"way","osm_id":593152767,"display_name":"Belgrano, Guaminí, Partido de Guaminí, Bs. As., 6435, Argentina","place_rank":26,"category":"highway","type":"residential","importance":0.31000000000000005},"bbox":[-62.4227146,-37.0159487,-62.4201493,-37.0139337],"geometry":{"type":"Point","coordinates":[-62.4218401,-37.0152555]}},
{"type":"Feature","properties":{"fid":94,"place_id":125915320,"osm_type":"way","osm_id":212710015,"display_name":"Peatonal Eva Perón, Los Portones, Villa Reichembach, Ituzaingó, Partido de Ituzaingó, Bs. As., 1785, Argentina","place_rank":26,"category":"highway","type":"pedestrian","importance":0.61},"bbox":[-58.6675121,-34.6593867,-58.6660064,-34.6589133],"geometry":{"type":"Point","coordinates":[-58.6675121,-34.6593867]}},
{"type":"Feature","properties":{"fid":95,"place_id":136778328,"osm_type":"way","osm_id":256523274,"display_name":"Gelly y Obes, Piñero, José C. Paz, Partido de José C. Paz, Bs. As., B1665, Argentina","place_rank":26,"category":"highway","type":"residential","importance":0.8099999999999999},"bbox":[-58.7535913,-34.5267121,-58.7483915,-34.5201372],"geometry":{"type":"Point","coordinates":[-58.7510541,-34.5233569]}},
{"type":"Feature","properties":{"fid":97,"place_id":239652827,"osm_type":"way","osm_id":627423674,"display_name":"288, Quinteros, El Silvio, Mar de Ajó, Partido de La Costa, Bs. As., 7109, Argentina","place_rank":30,"category":"place","type":"house","importance":0.5209999999999999},"bbox":[-56.678427983674,-36.725656,-56.678327983673,-36.725556],"geometry":{"type":"Point","coordinates":[-56.6783779836735,-36.725606]}},
{"type":"Feature","properties":{"fid":99,"place_id":97357115,"osm_type":"way","osm_id":97637565,"display_name":"137, Barrio Los Hornos, Empalme Lobos, Partido de Lobos, Bs. As., B7240AEQ, Argentina","place_rank":26,"category":"highway","type":"unclassified","importance":0.5199999999999999},"bbox":[-59.1065358,-35.1678035,-59.0983189,-35.1676845],"geometry":{"type":"Point","coordinates":[-59.1021566,-35.1677413]}},
{"type":"Feature","properties":{"fid":102,"place_id":256785226,"osm_type":"way","osm_id":678776877,"display_name":"1541, Ituzaingó, Villa General Paz, Lanús Este, Partido de Lanús, Bs. As., 1825, Argentina","place_rank":30,"category":"place","type":"house","importance":0.32100000000000006},"bbox":[-58.385556236735,-34.710067522449,-58.385456236735,-34.709967522449],"geometry":{"type":"Point","coordinates":[-58.3855062367347,-34.710017522449]}},
{"type":"Feature","properties":{"fid":104,"place_id":98842671,"osm_type":"way","osm_id":101446481,"display_name":"Domingo Harosteguy, Traut, Las Flores, Partido de Las Flores, Bs. As., 7200, Argentina","place_rank":26,"category":"highway","type":"residential","importance":0.51},"bbox":[-59.1046615,-36.0219409,-59.0895814,-36.008915],"geometry":{"type":"Point","coordinates":[-59.0971438,-36.0154468]}},
{"type":"Feature","properties":{"fid":108,"place_id":244456746,"osm_type":"way","osm_id":642719458,"display_name":"Avenida Leandro N. Alem, San José, Cuartel II, Lincoln, Partido de Lincoln, Bs. As., B6070AAA, Argentina","place_rank":26,"category":"highway","type":"secondary","importance":0.51},"bbox":[-61.5296057,-34.8693611,-61.5279661,-34.8679778],"geometry":{"type":"Point","coordinates":[-61.5287503,-34.8686733]}},
{"type":"Feature","properties":{"fid":109,"place_id":197396751,"osm_type":"way","osm_id":610946121,"display_name":"San Martín, El Morito, El Triunfo, Partido de Lincoln, Bs. As., 6073, Argentina","place_rank":26,"category":"highway","type":"residential","importance":0.61},"bbox":[-61.5153965,-35.09341,-61.5150984,-35.0911044],"geometry":{"type":"Point","coordinates":[-61.515273,-35.092264]}},
{"type":"Feature","properties":{"fid":111,"place_id":108668308,"osm_type":"way","osm_id":141213206,"display_name":"Manuel García, Coronel Martínez de Hoz, Partido de Lincoln, Bs. As., 6533, Argentina","place_rank":26,"category":"highway","type":"residential","importance":0.51},"bbox":[-61.6159265,-35.3344134,-61.6137405,-35.3273621],"geometry":{"type":"Point","coordinates":[-61.6148368,-35.3308773]}},
{"type":"Feature","properties":{"fid":115,"place_id":136766527,"osm_type":"way","osm_id":256476360,"display_name":"San Martin, Roberts, Partido de Lincoln, Bs. As., 6075, Argentina","place_rank":26,"category":"highway","type":"residential","importance":0.41000000000000003},"bbox":[-61.9730599,-35.1475212,-61.9657145,-35.1413076],"geometry":{"type":"Point","coordinates":[-61.969455,-35.1443492]}},
{"type":"Feature","properties":{"fid":117,"place_id":105839141,"osm_type":"way","osm_id":132549960,"display_name":"Avenida Mitre, Lobería, Partido de Lobería, Bs. As., 7635, Argentina","place_rank":26,"category":"highway","type":"secondary","importance":0.31000000000000005},"bbox":[-58.7944637,-38.163418,-58.7830524,-38.1548261],"geometry":{"type":"Point","coordinates":[-58.7887371,-38.1591083]}},
{"type":"Feature","properties":{"fid":118,"place_id":137819956,"osm_type":"way","osm_id":261018142,"display_name":"Belgrano, Empalme Lobos, Partido de Lobos, Bs. As., B7240AEQ, Argentina","place_rank":26,"category":"highway","type":"residential","importance":0.41000000000000003},"bbox":[-59.099302,-35.154786,-59.0990989,-35.1483957],"geometry":{"type":"Point","coordinates":[-59.0991977,-35.1518346]}},
{"type":"Feature","properties":{"fid":119,"place_id":27605181,"osm_type":"node","osm_id":2639926693,"display_name":"ARBA, 301, Senador Manuel Castro, Lomitas, Lomas de Zamora, Partido de Lomas de Zamora, Bs. As., 1832, Argentina","place_rank":30,"category":"office","type":"government","importance":0.721},"bbox":[-58.4030587,-34.756561,-58.4029587,-34.756461],"geometry":{"type":"Point","coordinates":[-58.4030087,-34.756511]}},
{"type":"Feature","properties":{"fid":121,"place_id":265211489,"osm_type":"node","osm_id":2140278047,"display_name":"ARBA, 1263, Bartolomé Mitre, Barrio Luján Centro, Luján, Partido de Luján, Bs. As., 6700, Argentina","place_rank":30,"category":"building","type":"public","importance":0.32100000000000006},"bbox":[-59.1049961,-34.5702302,-59.1048961,-34.5701302],"geometry":{"type":"Point","coordinates":[-59.1049461,-34.5701802]}},
{"type":"Feature","properties":{"fid":123,"place_id":95606820,"osm_type":"way","osm_id":92792132,"display_name":"Maipú, Magdalena, Partido de Magdalena, Bs. As., B1913, Argentina","place_rank":26,"category":"highway","type":"residential","importance":0.41000000000000003},"bbox":[-57.5169524,-35.0840611,-57.5142553,-35.073335],"geometry":{"type":"Point","coordinates":[-57.5155522,-35.078688]}},
{"type":"Feature","properties":{"fid":127,"place_id":239652827,"osm_type":"way","osm_id":627423674,"display_name":"288, Quinteros, El Silvio, Mar de Ajó, Partido de La Costa, Bs. As., 7109, Argentina","place_rank":30,"category":"place","type":"house","importance":0.5209999999999999},"bbox":[-56.678427983674,-36.725656,-56.678327983673,-36.725556],"geometry":{"type":"Point","coordinates":[-56.6783779836735,-36.725606]}},
{"type":"Feature","properties":{"fid":128,"place_id":17736764,"osm_type":"way","osm_id":337674667,"display_name":"3032, Avenida Colón, Centro, Mar del Plata, Partido de General Pueyrredón, Bs. As., 7606, Argentina","place_rank":30,"category":"place","type":"house","importance":0.621},"bbox":[-57.554654004082,-38.001421357143,-57.554554004082,-38.001321357143],"geometry":{"type":"Point","coordinates":[-57.5546040040816,-38.0013713571429]}},
{"type":"Feature","properties":{"fid":129,"place_id":81514335,"osm_type":"way","osm_id":26159165,"display_name":"Rondeau, Puerto, Mar del Plata, Partido de General Pueyrredón, Bs. As., B7603AKW, Argentina","place_rank":26,"category":"highway","type":"residential","importance":0.8099999999999999},"bbox":[-57.5524771,-38.0422626,-57.5467475,-38.0375181],"geometry":{"type":"Point","coordinates":[-57.55003,-38.040221]}},
{"type":"Feature","properties":{"fid":133,"place_id":18389903,"osm_type":"way","osm_id":368694761,"display_name":"22, Mercedes, Comuna 10, Floresta, CABA, C1407DYT, Argentina","place_rank":30,"category":"place","type":"house","importance":0.32100000000000006},"bbox":[-58.48318035102,-34.633875293878,-58.48308035102,-34.633775293877],"geometry":{"type":"Point","coordinates":[-58.4831303510204,-34.6338252938775]}},
{"type":"Feature","properties":{"fid":134,"place_id":88724904,"osm_type":"way","osm_id":49531783,"display_name":"Calle Real, el mirador, Lago del Bosque, Merlo, Partido de Merlo, Bs. As., B1718EVD, Argentina","place_rank":26,"category":"highway","type":"secondary","importance":0.71},"bbox":[-58.7236355,-34.6797544,-58.7073972,-34.673209],"geometry":{"type":"Point","coordinates":[-58.715131,-34.6766413]}},
{"type":"Feature","properties":{"fid":135,"place_id":55927325,"osm_type":"node","osm_id":4504769767,"display_name":"518, Italia, Centro, Pergamino, Partido de Pergamino, Bs. As., 2700, Argentina","place_rank":30,"category":"place","type":"house","importance":0.32100000000000006},"bbox":[-60.5760473,-33.8931124,-60.5759473,-33.8930124],"geometry":{"type":"Point","coordinates":[-60.5759973,-33.8930624]}},
{"type":"Feature","properties":{"fid":137,"place_id":21285690,"osm_type":"node","osm_id":2103326149,"display_name":"Museo de Ciencias Naturales Vicente Di Martino, 250, Nélida Fossatty, Monte Hermoso, Partido de Monte Hermoso, Bs. As., 8153, Argentina","place_rank":30,"category":"tourism","type":"museum","importance":0.621,"icon":"https://nominatim.openstreetmap.org/images/mapicons/tourist_museum.p.20.png"},"bbox":[-61.2901637,-38.9868428,-61.2900637,-38.9867428],"geometry":{"type":"Point","coordinates":[-61.2901137,-38.9867928]}},
{"type":"Feature","properties":{"fid":138,"place_id":16941694,"osm_type":"way","osm_id":304789761,"display_name":"236, Pedro Martinez Melo, El Cañon, Moreno Centro sur, Moreno, Partido de Moreno, Bs. As., B1738GTD, Argentina","place_rank":30,"category":"place","type":"house","importance":0.5209999999999999},"bbox":[-58.792816930612,-34.652849885714,-58.792716930612,-34.652749885714],"geometry":{"type":"Point","coordinates":[-58.7927669306122,-34.6527998857143]}},
{"type":"Feature","properties":{"fid":139,"place_id":88360199,"osm_type":"way","osm_id":47918925,"display_name":"Belgrano, Morón, Partido de Morón, Bs. As., 1708, Argentina","place_rank":26,"category":"highway","type":"tertiary","importance":0.31000000000000005},"bbox":[-58.6216041,-34.661981,-58.6215074,-34.6604011],"geometry":{"type":"Point","coordinates":[-58.6215291,-34.6612913]}},
{"type":"Feature","properties":{"fid":140,"place_id":22157384,"osm_type":"way","osm_id":614269863,"display_name":"22, Julián Navarro, Villa Uruguay, Beccar, Partido de San Isidro, Bs. As., 1643, Argentina","place_rank":30,"category":"place","type":"house","importance":0.32100000000000006},"bbox":[-58.529314755102,-34.459906673469,-58.529214755102,-34.459806673469],"geometry":{"type":"Point","coordinates":[-58.529264755102,-34.4598566734694]}},
{"type":"Feature","properties":{"fid":141,"place_id":150123294,"osm_type":"way","osm_id":320331936,"display_name":"Calle 64, Necochea, Partido de Necochea, Bs. As., 7630, Argentina","place_rank":26,"category":"highway","type":"residential","importance":0.41000000000000003},"bbox":[-58.7518612,-38.5598961,-58.7423883,-38.5522865],"geometry":{"type":"Point","coordinates":[-58.7471432,-38.5560475]}},
{"type":"Feature","properties":{"fid":147,"place_id":122739292,"osm_type":"way","osm_id":201060870,"display_name":"Alem, Juan José Paso, Partido de Pehuajó, Bs. As., B6474APD, Argentina","place_rank":26,"category":"highway","type":"residential","importance":0.41000000000000003},"bbox":[-62.2939394,-35.8517156,-62.2935595,-35.8425562],"geometry":{"type":"Point","coordinates":[-62.293749,-35.8471462]}},
{"type":"Feature","properties":{"fid":149,"place_id":15940112,"osm_type":"way","osm_id":290761192,"display_name":"122, Moreno, Barrio San Marcos, Pellegrini, Partido de Pellegrini, Bs. As., Argentina","place_rank":30,"category":"place","type":"house","importance":0.42099999999999993},"bbox":[-63.164158095918,-36.270120771429,-63.164058095918,-36.270020771429],"geometry":{"type":"Point","coordinates":[-63.1641080959184,-36.2700707714286]}},
{"type":"Feature","properties":{"fid":150,"place_id":88656007,"osm_type":"way","osm_id":48265473,"display_name":"Luzuriaga, Centro, Pergamino, Partido de Pergamino, Bs. As., 2700, Argentina","place_rank":26,"category":"highway","type":"residential","importance":0.41000000000000003},"bbox":[-60.5706339,-33.8946301,-60.5686174,-33.8902428],"geometry":{"type":"Point","coordinates":[-60.5696708,-33.892525]}},
{"type":"Feature","properties":{"fid":151,"place_id":15973962,"osm_type":"way","osm_id":291247649,"display_name":"537, Avenida Eduardo Casey, Pigüé, Partido de Saavedra, Bs. As., 8170, Argentina","place_rank":30,"category":"place","type":"house","importance":0.42099999999999993},"bbox":[-62.402839844898,-37.603430295918,-62.402739844898,-37.603330295918],"geometry":{"type":"Point","coordinates":[-62.402789844898,-37.6033802959184]}},
{"type":"Feature","properties":{"fid":152,"place_id":268676605,"osm_type":"way","osm_id":292174833,"display_name":"11, Pila, Lobos, Partido de Lobos, Bs. As., B7240IPA, Argentina","place_rank":30,"category":"place","type":"house","importance":0.42099999999999993},"bbox":[-59.097752273469,-35.178390140816,-59.097652273469,-35.178290140816],"geometry":{"type":"Point","coordinates":[-59.0977022734694,-35.1783401408163]}},
{"type":"Feature","properties":{"fid":157,"place_id":144363828,"osm_type":"way","osm_id":298961686,"display_name":"Hipólito Yrigoyen, Puan, Partido de Puan, Bs. As., 8180, Argentina","place_rank":26,"category":"highway","type":"residential","importance":0.51},"bbox":[-62.7706862,-37.5507341,-62.7705599,-37.5496221],"geometry":{"type":"Point","coordinates":[-62.7706862,-37.5505575]}},
{"type":"Feature","properties":{"fid":161,"place_id":109126596,"osm_type":"way","osm_id":147103452,"display_name":"Belgrano, San Pantaleón, Villa Ramallo, Partido de Ramallo, Bs. As., 2914, Argentina","place_rank":26,"category":"highway","type":"residential","importance":0.41000000000000003},"bbox":[-60.0682815,-33.4985928,-60.0636868,-33.4950811],"geometry":{"type":"Point","coordinates":[-60.0663338,-33.49666]}},
{"type":"Feature","properties":{"fid":162,"place_id":147149538,"osm_type":"way","osm_id":307014815,"display_name":"Región Descentralizada I Noroeste - Ramos Mejía, 13518, Avenida Rivadavia, Ramos Mejía, Partido de La Matanza, Bs. As., B1704EKI, Argentina","place_rank":30,"category":"amenity","type":"townhall","importance":0.5209999999999999},"bbox":[-58.5576893,-34.6404724,-58.5572123,-34.6400232],"geometry":{"type":"Point","coordinates":[-58.5574504076418,-34.6402422]}},
{"type":"Feature","properties":{"fid":168,"place_id":190666111,"osm_type":"way","osm_id":554950575,"display_name":"Maipú, Saavedra, San Nicolás, Partido de San Nicolás, Bs. As., B2900, Argentina","place_rank":26,"category":"highway","type":"residential","importance":0.41000000000000003},"bbox":[-60.1970292,-33.3539457,-60.1922532,-33.3505887],"geometry":{"type":"Point","coordinates":[-60.1945543,-33.3523283]}},
{"type":"Feature","properties":{"fid":170,"place_id":16022921,"osm_type":"way","osm_id":292235830,"display_name":"120, 3 de Febrero, Salliqueló, Partido de Salliqueló, Bs. As., 6339, Argentina","place_rank":30,"category":"place","type":"house","importance":0.5209999999999999},"bbox":[-62.965588016326,-36.752833269388,-62.965488016326,-36.752733269388],"geometry":{"type":"Point","coordinates":[-62.9655380163265,-36.7527832693878]}},
{"type":"Feature","properties":{"fid":172,"place_id":15268374,"osm_type":"way","osm_id":250189346,"display_name":"338, Moreno, La Primavera, San Andrés de Giles, Partido de San Andrés de Giles, Bs. As., 6720, Argentina","place_rank":30,"category":"place","type":"house","importance":0.621},"bbox":[-59.447505832653,-34.441868420408,-59.447405832653,-34.441768420408],"geometry":{"type":"Point","coordinates":[-59.4474558326531,-34.4418184204082]}},
{"type":"Feature","properties":{"fid":174,"place_id":120246713,"osm_type":"way","osm_id":183851167,"display_name":"25 de Mayo, San Cayetano, Partido de San Cayetano, Bs. As., B7521AFN, Argentina","place_rank":26,"category":"highway","type":"residential","importance":0.71},"bbox":[-59.6133653,-38.3511106,-59.6012827,-38.3417472],"geometry":{"type":"Point","coordinates":[-59.607478,-38.3463097]}},
{"type":"Feature","properties":{"fid":177,"place_id":178720547,"osm_type":"way","osm_id":473395577,"display_name":"25 de Mayo, Barrio Infico, San Fernando, Partido de San Fernando, Bs. As., B1646CXO, Argentina","place_rank":26,"category":"highway","type":"residential","importance":0.61},"bbox":[-58.5596388,-34.4399619,-58.5589146,-34.4393231],"geometry":{"type":"Point","coordinates":[-58.5589146,-34.4393231]}},
{"type":"Feature","properties":{"fid":180,"place_id":16259674,"osm_type":"way","osm_id":295112832,"display_name":"1137, Bartolomé Mitre, San Pedro, Partido de San Pedro, Bs. As., B2930, Argentina","place_rank":30,"category":"place","type":"house","importance":0.621},"bbox":[-59.6677335,-33.680752720408,-59.6676335,-33.680652720408],"geometry":{"type":"Point","coordinates":[-59.6676835,-33.6807027204082]}},
{"type":"Feature","properties":{"fid":181,"place_id":16211756,"osm_type":"way","osm_id":294196821,"display_name":"92, Belgrano, San Vicente, Partido de San Vicente, Bs. As., 1865, Argentina","place_rank":30,"category":"place","type":"house","importance":0.5209999999999999},"bbox":[-58.421977095918,-35.024104526531,-58.421877095918,-35.024004526531],"geometry":{"type":"Point","coordinates":[-58.4219270959184,-35.0240545265306]}},
{"type":"Feature","properties":{"fid":183,"place_id":111687188,"osm_type":"way","osm_id":156479415,"display_name":"Selva Negra, Atlántida - Reserva Forestal, Santa Clara del Mar, Partido de Mar Chiquita, Bs. As., 7609, Argentina","place_rank":26,"category":"highway","type":"residential","importance":0.61},"bbox":[-57.5152538,-37.8432949,-57.5065781,-37.8327635],"geometry":{"type":"Point","coordinates":[-57.5110805,-37.8378297]}},
{"type":"Feature","properties":{"fid":184,"place_id":186841236,"osm_type":"way","osm_id":521958877,"display_name":"Alem, Cuatro Avenidas, Tandil, Partido de Tandil, Bs. As., 7000, Argentina","place_rank":26,"category":"highway","type":"residential","importance":0.41000000000000003},"bbox":[-59.138754,-37.3192739,-59.1373525,-37.3169191],"geometry":{"type":"Point","coordinates":[-59.1380504,-37.3181016]}},
{"type":"Feature","properties":{"fid":186,"place_id":15169694,"osm_type":"way","osm_id":245699586,"display_name":"727, Avenida Daniel M. Cazón, Tigre, Partido de Tigre, Bs. As., B1648EWH, Argentina","place_rank":30,"category":"place","type":"house","importance":0.5209999999999999},"bbox":[-58.572157830612,-34.429413455102,-58.572057830612,-34.429313455102],"geometry":{"type":"Point","coordinates":[-58.5721078306122,-34.429363455102]}},
{"type":"Feature","properties":{"fid":188,"place_id":96804195,"osm_type":"way","osm_id":97845114,"display_name":"Sarmiento, Saldungaray, Partido de Tornquist, Bs. As., Argentina","place_rank":26,"category":"highway","type":"residential","importance":0.41000000000000003},"bbox":[-61.7651785,-38.2071391,-61.7642616,-38.1993615],"geometry":{"type":"Point","coordinates":[-61.764681,-38.2030023]}},
{"type":"Feature","properties":{"fid":194,"place_id":16015329,"osm_type":"way","osm_id":292228367,"display_name":"352, San Martín, Tres Lomas, Partido de Tres Lomas, Bs. As., 6409, Argentina","place_rank":30,"category":"place","type":"house","importance":0.621},"bbox":[-62.861181465306,-36.457210544898,-62.861081465306,-36.457110544898],"geometry":{"type":"Point","coordinates":[-62.8611314653061,-36.457160544898]}},
{"type":"Feature","properties":{"fid":195,"place_id":195713192,"osm_type":"way","osm_id":601413939,"display_name":"San Martín, Urdampilleta, Partido de Bolívar, Bs. As., Argentina","place_rank":26,"category":"highway","type":"residential","importance":0.51},"bbox":[-61.414449,-36.427905,-61.4135649,-36.4272061],"geometry":{"type":"Point","coordinates":[-61.414449,-36.427905]}},
{"type":"Feature","properties":{"fid":199,"place_id":105549957,"osm_type":"way","osm_id":128241632,"display_name":"Avenida San Martín, Villa Iris, Partido de Puan, Bs. As., Argentina","place_rank":26,"category":"highway","type":"secondary","importance":0.71},"bbox":[-63.2369558,-38.1743658,-63.2314048,-38.1680765],"geometry":{"type":"Point","coordinates":[-63.2346165,-38.1715835]}},
{"type":"Feature","properties":{"fid":201,"place_id":114346621,"osm_type":"way","osm_id":167700402,"display_name":"Italia, Maza, Partido de Adolfo Alsina, Bs. As., 6343, Argentina","place_rank":26,"category":"highway","type":"residential","importance":0.41000000000000003},"bbox":[-63.341824,-36.8022874,-63.3355148,-36.8005692],"geometry":{"type":"Point","coordinates":[-63.3381058,-36.8012722]}},
{"type":"Feature","properties":{"fid":202,"place_id":16423353,"osm_type":"way","osm_id":297354631,"display_name":"410, Mitre, Médanos, Partido de Villarino, Bs. As., 8132, Argentina","place_rank":30,"category":"place","type":"house","importance":0.32100000000000006},"bbox":[-62.694525330612,-38.827969295918,-62.694425330612,-38.827869295918],"geometry":{"type":"Point","coordinates":[-62.6944753306122,-38.8279192959184]}},
{"type":"Feature","properties":{"fid":204,"place_id":5126476,"osm_type":"node","osm_id":577560793,"display_name":"Catastro, 835, Vicario Segura, Centro, Catamarca, Municipio de San Fernando del Valle de Catamarca, Departamento Capital, CTM, 4700, Argentina","place_rank":30,"category":"building","type":"yes","importance":0.5209999999999999},"bbox":[-65.7741108,-28.471104,-65.7740108,-28.471004],"geometry":{"type":"Point","coordinates":[-65.7740608,-28.471054]}},
{"type":"Feature","properties":{"fid":206,"place_id":157530292,"osm_type":"way","osm_id":353368725,"display_name":"Avenida 1º de Mayo, Santa María, Municipio de Santa María, Departamento Santa María, CTM, K4139, Argentina","place_rank":26,"category":"highway","type":"residential","importance":0.61},"bbox":[-66.0476428,-26.6993973,-66.0431446,-26.6860636],"geometry":{"type":"Point","coordinates":[-66.0452182,-26.6923802]}},
{"type":"Feature","properties":{"fid":207,"place_id":89095228,"osm_type":"way","osm_id":47704079,"display_name":"Copiapó, Tinogasta, Municipio de Tinogasta, Departamento Tinogasta, CTM, K5340, Argentina","place_rank":26,"category":"highway","type":"residential","importance":0.41000000000000003},"bbox":[-67.5716472,-28.0711599,-67.5648804,-28.0495093],"geometry":{"type":"Point","coordinates":[-67.5681964,-28.0605317]}},
{"type":"Feature","properties":{"fid":211,"place_id":137098710,"osm_type":"way","osm_id":255948949,"display_name":"Pasaje Tucumán, Barrio Moreno Parque, Reconquista, Municipio de Reconquista, Departamento General Obligado, Sta. Fe, S3560, Argentina","place_rank":26,"category":"highway","type":"residential","importance":0.51},"bbox":[-59.6604966,-29.1416693,-59.660332,-29.1405178],"geometry":{"type":"Point","coordinates":[-59.6604966,-29.1416693]}},
{"type":"Feature","properties":{"fid":212,"place_id":16634894,"osm_type":"way","osm_id":301569806,"display_name":"1077, San Martín, Rosario Centro, Distrito Centro, Rosario, Municipio de Rosario, Departamento Rosario, Sta. Fe, S2000, Argentina","place_rank":30,"category":"place","type":"house","importance":0.621},"bbox":[-60.637480338776,-32.9501914,-60.637380338776,-32.9500914],"geometry":{"type":"Point","coordinates":[-60.6374303387755,-32.9501414]}},
{"type":"Feature","properties":{"fid":213,"place_id":119420691,"osm_type":"way","osm_id":184211854,"display_name":"San Martin, Malvinas Argentinas, Venado Tuerto, Municipio de Venado Tuerto, Departamento General López, Sta. Fe, S2600, Argentina","place_rank":26,"category":"highway","type":"residential","importance":0.61},"bbox":[-61.9825019,-33.735076,-61.973849,-33.7240864],"geometry":{"type":"Point","coordinates":[-61.9781885,-33.7295881]}},
{"type":"Feature","properties":{"fid":215,"place_id":104577384,"osm_type":"way","osm_id":127665680,"display_name":"Las Heras, Rincón Arizu, Zona Centro Godoy Cruz, Godoy Cruz, Distrito Ciudad de Godoy Cruz, Departamento Godoy Cruz, Mza., 5501, Argentina","place_rank":26,"category":"highway","type":"residential","importance":0.51},"bbox":[-68.8482972,-32.9316553,-68.8463361,-32.9243306],"geometry":{"type":"Point","coordinates":[-68.8474846,-32.928231]}},
{"type":"Feature","properties":{"fid":216,"place_id":113452311,"osm_type":"way","osm_id":164450494,"display_name":"Avenida Carlos Pellegrini, Sector industrial . Depósitos, Tunuyán, Distrito Ciudad de Tunuyán, Departamento Tunuyán, Mza., M5560EVZ, Argentina","place_rank":26,"category":"highway","type":"secondary","importance":0.41000000000000003},"bbox":[-69.0409426,-33.5798209,-69.0162745,-33.5774768],"geometry":{"type":"Point","coordinates":[-69.0288862,-33.5777744]}}]}
